name,latitude,longitude
1 ALJUNIED MEDICAL,1.33319,103.87878
1 BISHAN MEDICAL,1.35909,103.84457
1 MEDICAL TECK GHEE,1.36269,103.85469
1 TOA PAYOH MEDICAL,1.33907,103.85553
171 STIRLING FAMILY CLINIC,1.29077,103.80388
18 CLINIC,1.3190441,103.860798
1DOC MEDICAL CENTRE(BEDOK),1.3190441,103.860798
1DOC REDHILL FAMILY CLINIC,1.28967,103.85007
338 FAMILY CLINIC,1.3631403,103.848685
360 CLINIC,1.3622425,103.8555242
57 MEDICAL CLINIC(GEYLANG BAHRU),1.3234255,103.8689449
57 MEDICAL CLINIC(KALLANG AIRPORT),1.3101503,103.8852978
57 MEDICAL CLINIC(PARKWAY CENTRE),1.3019,103.906091
57 MEDICAL CLINIC(PEK KIO),1.3143398,103.8480363
57 MEDICAL CLINIC(WOODLANDS),1.4340327,103.7754001
57 MEDICAL CLINIC(YISHUN),1.4187636,103.835592
94 DAWSON FAMILY CLINIC,1.2960612,103.811304
A FAMILY CLINIC,1.2813087,103.8448549
A HEALING HEART MEDICAL CLINIC,1.3159054,103.8857566
A LIFE CLINIC PTE LTD,1.28967,103.85007
A MEDICAL CLINIC,1.2774007,103.8401402
A1 MEDICAL CLINIC,1.3225,103.96139
ACACIA MEDICAL CLINIC,1.2818153,103.8030293
ACEHEALTH MEDICAL,1.3645796,103.8476933
ACMS MEDICAL CLINIC,1.28967,103.85007
ACUMED MEDICAL GROUP,1.28967,103.85007
ACUMED MEDICAL GROUP,1.347181,103.9380431
ACUMED MEDICAL GROUP,1.3471811,103.9380431
ACUMED MEDICAL GROUP,1.3257123,103.9321346
ACUMED MEDICAL GROUP,1.28967,103.85007
ACUMED MEDICAL GROUP,1.4378404,103.7821937
ACUMED MEDICAL GROUP,1.32114,103.7427649
ACUMED MEDICAL GROUP,1.3394964,103.705254
ACUMED MEDICAL GROUP,1.3896623,103.8927994
ACUMED MEDICAL GROUP,1.28967,103.85007
ACUMED MEDICAL GROUP,1.3323546,103.7224647
ADIDAH FAMILY CLINIC & SURGERY,1.3485913,103.9347337
ADMIRALTY FAMILY MEDICAL CLINIC,1.4405121,103.8017118
ADVANCE CLINIC & SURGERY PTE LTD,1.3308274,103.9013973
ADVANTAGE MEDICAL CLINIC,1.28967,103.85007
ADVANTAGE MEDICAL CLINIC(JURONG WEST),1.3498597,103.7252886
AFFINITY MEDICAL CLINIC,1.3546388,103.871799
AIA ALEXANDRA CLINIC,1.29389,103.81972
AIDAN MEDICAL CLINIC,1.3312289,103.9252282
ALEXANDRA FAMILY CLINIC & SURGERY,1.2925348,103.8113068
ALLHEALTH FAMILY CLINIC,1.3553896,103.9317229
ALLIANCE CLINIC AND PARTNERS PTE LTD,1.3325925,103.9075259
ALLSWELL MEDICAL CLINIC,1.3394398,103.7053332
ALLY HEALTH,1.3152781,103.7668558
AMDA INTERNATIONAL PEACE CLINIC,1.28967,103.85007
AMK FAMILY CLINIC,1.3714876,103.8458658
AMPM FAMILY CLINIC & SURGERY PTE. LTD.,1.28967,103.85007
AN MEDICAL CLINIC@AMK,1.3724889,103.8474507
ANCHOR HEALTH FAMILY CLINIC,1.28967,103.85007
ANG MO KIO FAMILY MEDICINE CLINIC,1.3719352,103.8459597
ANG MO KIO MEDICAL CENTRE,1.3700803,103.8495228
ANSARI FAMILY CLINIC & SURGERY,1.315935,103.883308
APEX CLINIC & SURGERY,1.422888,103.8523081
APEX CLINIC & SURGERY,1.4298936,103.7746931
ANG MO KIO MEDICAL CENTRE,1.31587,103.88325
ANSARI FAMILY CLINIC & SURGERY,1.31282,103.88245
ANTEH DISPENSARY PTE LTD,1.422888,103.8523081
APEX CLINIC & SURGERY,1.4298936,103.7746931
APEX CLINIC & SURGERY,1.3413875,103.6915386
"APEX MEDICAL CENTRE 
(JURONG) PTE LTD",1.3700803,103.8495228
APPLETREE MEDICAL,1.3190089,103.7784888
ARCADIA CLINIC,1.3587508,103.7513848
AR-RAUDHAH MEDICAL CLINIC AND SURGERY PTE LTD,1.36389,103.8575
ASHFORD MEDICAL CENTRE,1.28967,103.85007
"ASIATIQUE MEDICAL & 
AESTHETICS CLINIC",1.3456864,103.8560258
ASPEN CLINIC,1.3163942,103.8938648
ASSURANCE MEDICARE CLINIC AND SURGERY,1.2833675,103.8156713
ASSURE FAMILY CLINIC BUKIT MERAH,1.28967,103.85007
ATA (ORCHARD) MEDICAL,1.28967,103.85007
ATA MEDICAL,1.4366436,103.8366613
ATRIO FAMILY CLINIC,1.3735945,103.8549749
ATRIO FAMILY CLINIC (AMK) PTE. LTD.,1.3430609,103.7381428
B S CHEW CLINIC,1.330951,103.8582302
B T GOH FAMILY CLINIC & SURGERY,1.324328,103.8518784
BALESTIER MEDICAL CLINIC,1.3335873,103.9149662
BALKIS FAMILY CLINIC,1.3504414,103.7181864
BANYAN CLINIC @ JW,1.28967,103.85007
BANYAN CLINIC PTE LTD.,1.3484654,103.8804001
BARTLEY CLINIC,1.28967,103.85007
BCH CLINIC @ PASIR RIS,1.3246238,103.93181
BEDOK CENTRAL CLINIC,1.3201303,103.9355628
"BEDOK CLINIC & 
SURGERY(FAMILY MEDICAL CENTRE)",1.3291889,103.9373558
BEDOK LIFE CLINIC,1.3205587,103.9347959
BEDOK MEDICAL CENTRE,1.28967,103.85007
BELIEF MEDICAL,1.28967,103.85007
BEST MED FAMILY CLINIC AND HOME CARE,1.3710938,103.8476629
BETHESDA MEDICAL @ AMK,1.28967,103.85007
BETHESDA MEDICAL @ BEACH RD,1.28967,103.85007
BETHESDA MEDICAL @ CEREZA,1.28967,103.85007
"BETHESDA MEDICAL @ 
GRANTRAL",1.28967,103.85007
BETHESDA MEDICAL @ SUNTEC,1.3580869,103.9459777
"BETHESDA MEDICAL @ 
TAMPINES",1.33274,103.84713
BETHESDA MEDICAL @ TPY,1.4365286,103.8375295
BETHESDA MEDICAL @ YISHUN,1.3404925,103.787472
BINJAI MEDICAL CLINIC,1.3446893,103.8553838
BISHAN GRACE CLINIC,1.28967,103.85007
BL MEDICAL ASSOCIATES,1.3459076,103.7310881
BLESS MEDICAL CENTRE PTE LTD,1.3313898,103.9087591
BOK FAMILY CLINIC PTE LTD,1.3142903,103.8710448
BOON KENG CLINIC & SURGERY,1.3463888,103.7127002
BOON LAY CLINIC & SURGERY,1.3440337,103.7312571
BOON LAY CORPORATION CLINIC,1.3386676,103.8446057
BRADDELL MEDICAL CLINIC,1.33581,103.84804
BRIGHTON MEDICAL CLINIC,1.3625546,103.7521696
BUKIT BATOK FAMILY CLINIC,1.3462442,103.7494054
BUKIT BATOK MEDICAL CLINIC,1.3195248,103.8171678
BUKIT TIMAH CLINIC,1.3403819,103.7728476
BUKIT TIMAH NAM SANG CLINIC,1.3088567,103.9119026
BWELL MEDICAL AND PHYSIO,1.28967,103.85007
C H TAN MEDICAL CLINIC & DENTAL SURGERY,1.28967,103.85007
C K TAN FAMILY CLINIC & SURGERY PTE LTD,1.28967,103.85007
C3 FAMILY CLINIC @ALJUNIED CRESCENT,1.4021747,103.8919813
CALROSE MEDICAL FAMILY CLINIC,1.3388217,103.8489919
CAMRY MEDICAL CENTRE,1.4351527,103.7760299
CANARY MEDICAL CLINIC,1.28967,103.85007
CANBERRA CARE MEDICAL CLINIC,1.3056405,103.8507725
CARE FAMILY CLINIC,1.28967,103.85007
CARE FOR YOU MEDICAL CLINIC,1.3665595,103.8416439
CAREDOC MEDICAL CLINIC,1.28967,103.85007
CARELINK FAMILY CLINIC,1.3205587,103.9347959
CARELITE MEDICAL CLINIC,1.28967,103.85007
CARELITE MEDICAL CLINIC (DOVER MEDICAL CENTRE),1.3748559,103.8502172
"CARELITE MEDICAL CLINIC (LEE CLINIC, AMK)",1.310382,103.7680124
CAREPLUS CLINIC,1.3499033,103.719221
CARING FAMILY CLINIC,1.3296994,103.9015932
CARITAS CLINIC,1.28967,103.85007
CASHEW MEDICAL & SURGERY,1.28967,103.85007
CAVENAGH MEDICAL CLINIC AND HOME CARE,1.3843361,103.743242
CCK FAMILY CLINIC,1.3617875,103.9525028
CECILIA FAMILY CLINIC & SURGERY,1.28967,103.85007
CENTRAL [ CLINIC + SURGERY ] MARINE PARADE,1.3843361,103.743242
CENTRAL 24-HR CLINIC ( CHOA CHU KANG ),1.3415355,103.6909282
CENTRAL 24-HR CLINIC (PIONEER NORTH ),1.28967,103.85007
CENTRAL 24-HR CLINIC (BEDOK ),1.3134323,103.7654887
"CENTRAL 24-HR CLINIC 
(CLEMENTI)",1.3679325,103.8970415
"CENTRAL 24-HR CLINIC 
(HOUGANG)",1.3498597,103.7252886
"CENTRAL 24HR CLINIC 
(JURONG WEST)",1.4310918,103.773703
"CENTRAL 24-HR CLINIC 
(MARSILING)",1.3705542,103.9573384
CENTRAL 24-HR CLINIC (PASIR RIS),1.3523302,103.9534923
"CENTRAL 24-HR CLINIC 
(TAMPINES)",1.28967,103.85007
"CENTRAL 24-HR CLINIC 
(WOODLANDS)",1.4298834,103.8279368
"CENTRAL 24-HR CLINIC 
(YISHUN)",1.2864578,103.8092877
CENTRAL MEDICAL GROUP PTE LTD,1.3232712,103.9242809
CHAI CHEE CLINIC & SURGERY,1.28967,103.85007
CHANG CLINIC,1.3225,103.96139
A1 MEDICAL CLINIC,1.276993,103.8390688
CHANG CLINIC & SURGERY,1.28967,103.85007
CHANGI CLINIC,1.3133897,103.8604198
CHARAZOI MEDICAL CLINIC,1.3496085,103.9460065
CHARIS CLINIC & SURGERY,1.3702553,103.8720445
CHEN FAMILY CLINIC,1.3674932,103.8559381
CHENG CLINIC,1.3115987,103.8548275
CHEONG FAMILY CLINIC PTE LTD,1.3403819,103.7728476
CHEONG MEDICAL CLINIC,1.28967,103.85007
CHIEW CLINIC,1.3289583,103.8863144
CHIN CHOO CLINIC,1.28967,103.85007
CHIN MEDICAL CLINIC,1.28967,103.85007
CHINATOWN WELLNESS CLINIC,1.28967,103.85007
CHIRON MEDICAL CLINIC,1.333601,103.849924
CHNG CLINIC AND SURGERY,1.28967,103.85007
CHONG'S MEDICAL CENTRE,1.2857711,103.8266235
CHUA & PARTNERS FAMILY CLINIC,1.3679325,103.8970415
CHUA CLINIC,1.422888,103.8523081
CHUA CLINIC & SURGERY,1.3435653,103.9535721
CHUA MEDICAL CENTRE PTE LTD,1.3489141,103.751814
CHUA MEDICAL CLINIC AND SURGERY PTE. LTD.,1.3728325,103.8556851
CHUA MEDICO CLINIC LLP,1.3204866,103.8860381
CHUAH CLINIC & SURGERY PTE LTD,1.2776292,103.8197941
CHUNG & EE MEDICAL CLINIC,1.34028,103.77583
CHUNGKIAW CLINIC PTE LTD,1.3291285,103.938031
CITYGP FAMILY CLINIC,1.36278,103.8975
CLAREMONT MEDICAL CLINIC,1.3084683,103.7624862
CLAREMONT MEDICAL CLINIC,1.3551116,103.9315802
ALLHEALTH FAMILY CLINIC,1.3325925,103.9075259
"ALLIANCE CLINIC AND 
PARTNERS PTE LTD",1.3684773,103.8445304
CLARION MEDICAL,1.3140358,103.7635088
"CLEMENTI FAMILY & 
AESTHETIC CLINIC",1.28967,103.85007
CLIFFORD DISPENSARY PTE LTD,1.28967,103.85007
CLIFFORD DISPENSARY PTE LTD,1.29156,103.86395
CLINIC @ THE SAIL,1.378071,103.9375403
CLINIC 10,1.28967,103.85007
CLINIC@COSTA,1.3799178,103.7527519
CLINICAL ASSOCIATES MEDICAL CENTRE,1.3968091,103.7467917
CLOVER MEDICAL CLINIC PTE LTD,1.358218,103.8710103
COMFORT CLINIC & SURGERY,1.3950661,103.9004703
COMPASSVALE 297A MEDICAL CLINIC,1.28967,103.85007
CRAWFURD MEDICAL,1.321298,103.9026209
CRESCENT CLINIC & SURGERY,1.442667,103.7866476
CREST FAMILY CLINIC PTE. LTD.,1.28967,103.85007
CROSS STREET MEDICAL CLINIC,1.3625972,103.9378943
CROSSROADS FAMILY CLINIC,1.393146,103.8870307
DA CLINIC @ ANCHORVALE,1.3725978,103.8540144
DA CLINIC @ ANG MO KIO,1.348447,103.849103
DA CLINIC @ BISHAN,1.3529769,103.7437581
DA CLINIC @ BUKIT BATOK,1.28967,103.85007
DA CLINIC @ POTONG PASIR,1.28967,103.85007
DA CLINIC @ SIMEI,1.28967,103.85007
DA CLINIC @ TAMAN JURONG,1.4329149,103.8406947
DA CLINIC @ YISHUN,1.4366436,103.8366613
ATRIO FAMILY CLINIC,1.3756005,103.8865229
DAILY MEDICAL CENTRE,1.3523775,103.9438195
DAYSPRING MEDICAL CLINIC (TAMPINES),1.28967,103.85007
DISTINCT CLINIC BUKIT BATOK BRANCH,1.3423585,103.7395536
DISTINCT CLINIC JURONG EAST BRANCH,1.28967,103.85007
"DISTINCT CLINIC TANAH 
MERAH BRANCH",1.4303367,103.7742618
DOCTORS CLINIC & SURGERY,1.28967,103.85007
DOCTORS FOR LIFE MEDICAL,1.333601,103.849924
DOCTORS INC MEDICAL GROUP,1.3270611,103.7206635
"DOCTORS KOO, LOH & 
ASSOCIATES (PTE) LTD",1.3140373,103.7713118
DOCTORS MEDICAL CLINIC,1.2857711,103.8266235
DR CARE MEDICAL CLINIC,1.28967,103.85007
DR CHEN AND PARTNERS MEDICAL CLINIC,1.3416979,103.6971606
DR CHUA'S FAMILY CLINIC PTE. LTD.,1.28967,103.85007
DR GARY'S FAMILY CLINIC,1.4020306,103.8929335
DR JOYCE & PARTNERS FAMILY CLINIC,1.333601,103.849924
DR JOYCE & PARTNERS FAMILY CLINIC (TOA PAYOH BRANCH),1.28967,103.85007
DR KEVIN CHUA MEDICAL & AESTHETICS,1.31697,103.8438
"DR LIM LEAN HUAT & 
ASSOCIATES PTE LTD",1.28967,103.85007
DR NAH & LEE FAMILY CLINIC,1.3577865,103.8332545
DR PANDA MEDICAL CENTRE,1.349652,103.7518638
DR STANLEY PECK FAMILY CLINIC,1.28967,103.85007
DR W.K. KOO & ASSOCIATES P.L.,1.3446074,103.7336914
DR.DEEPAN'S MEDICAL CLINIC,1.4365286,103.8375295
BETHESDA MEDICAL @ YISHUN,1.2877108,103.804479
DR+ MEDICAL & PAINCARE ALEXANDRA,1.347227,103.8510798
DR+ MEDICAL & PAINCARE BISHAN,1.3088567,103.9119026
DR+ MEDICAL & PAINCARE EAST COAST,1.28967,103.85007
DR+ MEDICAL & PAINCARE HOUGANG,1.4434205,103.7778747
DR+ MEDICAL & PAINCARE MARSILING,1.3521194,103.9365383
DR+ MEDICAL & PAINCARE TAMPINES,1.28967,103.85007
DR+ MEDICAL & PAINCARE UPPER THOMSON,1.28967,103.85007
DR+ MEDICAL AND PAINCARE FERNVALE,1.3381816,103.8458113
DR+ MEDICAL PAINCARE CLINIC,1.2837429,103.8168426
DRS CHAN & TANG FAMILY CLINIC,1.3537138,103.8906559
"DRS KOO, KOH & ASSOCIATES P.L.",1.28967,103.85007
DRS LIM & CHAN CLINIC,1.3415355,103.6909282
DRS LIM & CHAN CLINIC,1.28967,103.85007
"DRS OH, LIM, WONG & 
PARTNERS",1.3323546,103.7224647
"DRS SINGH & PARTNERS, RAFFLES CITY MEDICAL CENTRE",1.28967,103.85007
DRS TANG & PARTNERS PTE. LTD.,1.28967,103.85007
DRS. BAIN & PARTNERS,1.2769834,103.8432759
DRS. BAIN AND PARTNERS LLP,1.4462194,103.8143512
DUXTON MEDICAL CLINIC,1.3380429,103.8450477
DUXTON MEDICAL CLINIC CANBERRA,1.3140344,103.7625606
E MEDICAL CLINIC & SURGERY,1.28967,103.85007
E. L. CHIN FAMILY CLINIC & SURGERY PTE. LTD.,1.28967,103.85007
CANBERRA CARE MEDICAL CLINIC,1.28967,103.85007
E.J. TAN CLINIC & SURGERY,1.28967,103.85007
EARLY MEDICAL CENTRE,1.3399442,103.7421996
EAST COAST FAMILY CLINIC,1.3446074,103.7336914
EASTERN CLINIC & SURGERY PTE LTD,1.3335873,103.9149662
EASTERN CLINIC AND DENTAL SURGERY,1.3210477,103.9047274
EASTERN MEDICAL CENTRE,1.3992677,103.9127981
EC FAMILY CLINIC,1.3564943,103.8480659
EDGEDALE MEDICAL CLINIC,1.3159331,103.8482896
EDGEDALE MEDICAL CLINIC (BISHAN),1.3654865,103.9345566
EDGEDALE MEDICAL CLINIC (CAMBRIDGE),1.3708125,103.8435558
EDGEDALE MEDICAL CLINIC (TAMPINES),1.4465419,103.805898
EE CLINIC,1.3177318,103.9477691
EH MEDICAL,1.3444059,103.7553403
EH MEDICAL FAMILY CLINIC (BEDOK SOUTH),1.3498597,103.7252886
EH MEDICAL FAMILY CLINIC (BUKIT BATOK),1.3096677,103.8842822
EHA CLINIC @ JURONG,1.28967,103.85007
EIDDWEN FAMILY MEDICINE CLINIC,1.3757226,103.8792349
EJ FAMILY CLINIC & SURGERY,1.3489258,103.9507634
ELISSA MEDICAL CLINIC,1.4382792,103.7930718
EMMANUEL MEDICAL CLINIC,1.28967,103.85007
ESSENTIAL FAMILY CLINIC & SURGERY,1.3947743,103.8771028
ETERN MEDICAL CLINIC,1.36667,103.8
"ETERN MEDICAL CLINIC 
(FERNVALE PALM)",1.28967,103.85007
"ETERN MEDICAL CLINIC 
(PUNGGOL SUMANG LRT)",1.28967,103.85007
"ETERN MEDICAL CLINIC 
(SENGKANG)",1.3779196,103.7444017
"CENTRAL 24-HR CLINIC 
(WOODLANDS)",1.377615,103.73932
EVERCARE MEDICAL CLINIC,1.28967,103.85007
EVERCARE MEDICAL CLINIC (475) PTE LTD,1.3751009,103.8821732
EVERHEALTH FAMILY CLINIC & SURGERY,1.276993,103.8390688
EVERHEALTH MEDICAL CENTRE,1.3115987,103.8548275
EVERTON CLINIC,1.28967,103.85007
EVERWELL CLINIC & SURGERY,1.28967,103.85007
EXCEL FAMILY CLINIC,1.3508668,103.9488903
EXCELSIOR CLINIC & SURGERY,1.3175955,103.7693303
F K LIM FAMILY CLINIC,1.4315956,103.8293707
FAIRCARE FAMILY CLINIC (CLEMENTI),1.3373225,103.921251
FAIRCARE FAMILY CLINIC (YISHUN),1.3434392,103.7058663
FAITH CLINIC (BEDOK),1.3468707,103.9564591
FAITH CLINIC (JURONG WEST),1.28967,103.85007
FAITH CLINIC (SIMEI),1.28967,103.85007
FAITH CLINIC (TOA PAYOH),1.3062798,103.9152737
FAITH CLINIC (YISHUN),1.28967,103.85007
FAITH FAMILY CLINIC,1.28967,103.85007
"FAITH HEALTHCARE 
(RIVERVALE)",1.3606608,103.9578299
FAITH HEALTHCARE (TAMPINES),1.28967,103.85007
FAITH MEDICAL CLINIC & SURGERY,1.43333,103.83111
"FAJAR FAMILY CLINIC & 
SURGERY",1.3632389,103.7466279
FAMFIRST MEDICAL CLINIC PTE LTD,1.3679325,103.8970415
FAMILY CARE CLINIC PTE LTD,1.3377341,103.7202944
FAMILY CARE MEDICAL CENTRE PTE LTD,1.28967,103.85007
FAMILY DOCTORS AT 365,1.3204866,103.8860381
FAMILY HEALTH CLINIC & SURGERY,1.3668277,103.8398635
CHUAH CLINIC & SURGERY PTE LTD,1.3696887,103.8736911
FAMILY HEALTH MEDICAL CENTRE,1.3679325,103.8970415
FAMILY HEALTHCARE CLINIC & SURGERY,1.3723624,103.8478916
FAMILY HEALTHCARE CLINIC & SURGERY PTE LTD,1.3059193,103.9136952
FAMILY MEDICARE CLINIC & SURGERY,1.28967,103.85007
FAMILY MEDICINE CLINIC,1.3345284,103.7201308
FAMILY MEDICINE CLINIC CHINATOWN,1.28967,103.85007
"FAMILY POINT CLINIC & 
SURGERY",1.28967,103.85007
FAMILYCARE CLINIC & SURGERY,1.28967,103.85007
FAMILYGP MEDICAL CLINIC,1.3892665,103.8734098
FEMA CLINIC & SURGERY,1.3436214,103.7372137
FERNVALE FAMILY CLINIC,1.3486425,103.7577018
FINEST HEALTH MEDICAL CENTRE,1.28967,103.85007
FIRST CARE FAMILY CLINIC & SURGERY,1.4336023,103.775886
FIRST LIGHT FAMILY CLINIC & SURGERY,1.2922046,103.8028706
FIRST MEDICAL CENTRE PTE LTD,1.2733166,103.8089804
"FIRST MEDICAL CLINIC & 
SURGERY",1.3339554,103.8881781
FONG CLINIC,1.28967,103.85007
FRASER MEDICAL CENTRE,1.3140774,103.8871011
FRONTIER FAMILY MEDICINE CLINIC,1.3556137,103.7392351
FRONTIER FAMILY MEDICINE CLINIC,1.4406269,103.8062039
FRONTIER MEDICAL,1.3625972,103.9378943
"FRONTIER MEDICAL 
ASSOCIATES",1.4487455,103.8324847
"FRONTIER MEDICAL 
ASSOCIATES",1.3449138,103.7033769
CROSSROADS FAMILY CLINIC,1.4248212,103.8350704
"FRONTIER MEDICAL 
ASSOCIATES",1.4397155,103.7859956
"FRONTIER MEDICAL 
ASSOCIATES",1.3529769,103.7437581
"FRONTIER MEDICAL 
ASSOCIATES",1.3296994,103.9015932
"FRONTIER MEDICAL 
ASSOCIATES",1.3737366,103.8376671
"FRONTIER MEDICAL 
ASSOCIATES",1.3809089,103.8792312
"FRONTIER MEDICAL 
ASSOCIATES",1.3291889,103.9373558
"FRONTIER MEDICAL 
ASSOCIATES",1.273047,103.8448993
"FRONTIER MEDICAL 
ASSOCIATES",1.3781546,103.8726157
FRONTIER PEOPLE'S CLINIC,1.28967,103.85007
FULLERTON HEALTH @ 78 SHENTON WAY,1.4539568,103.7925443
FULLERTON HEALTH @ AMS,1.431993,103.7673775
FULLERTON HEALTH @ DRS TRYTHALL HOY DAVIES,1.28967,103.85007
"FULLERTON HEALTH @ 
MICRON FAB10N",1.28967,103.85007
"FULLERTON HEALTH @ 
MICRON FAB10W",1.28967,103.85007
"FULLERTON HEALTH @ 
MICRON MSB",1.2747835,103.7908516
FULLERTON HEALTH @ NTU,1.422888,103.8523081
FULLERTON HEALTH @ OFC,1.3150828,103.6907922
FULLERTON HEALTH @ PASIR PANJANG,1.28967,103.85007
FULLERTON HEALTH @ STATS CHIPPAC,1.28967,103.85007
"FULLERTON HEALTH @ 
TRACTORS",1.28967,103.85007
FULLERTON HEALTH @ UBS,1.28967,103.85007
FULLERTON HEALTH @ USG 1,1.3394964,103.705254
DR GARY'S FAMILY CLINIC,1.28967,103.85007
FULLERTON HEALTH HUB @ HOUGANG GREEN,1.28967,103.85007
FULLERTON HEALTHCARE @ DRS TRYTHALL HOY DAVIES,1.28967,103.85007
FULLERTON HEALTHCARE @ MBFC,1.28967,103.85007
FULLERTON HEALTHCARE @ OFS,1.28967,103.85007
FULLERTON HEALTHCARE SCREENING CENTRE,1.4181729,103.8428787
FULLERTON HEALTHCARE SCREENING CENTRE @ NOVENA,1.3802356,103.8412851
FUSION MEDICAL,1.28967,103.85007
G & H MEDICAL CLINIC PTE LTD,1.3537124,103.8677983
G S CLINIC & SURGERY,1.3434626,103.8585985
"GAINHEALTH CLINIC & 
HOMECARE (CITY GATE)",1.4434205,103.7778747
GARDEN CLINIC,1.28967,103.85007
GETHIN -JONES MEDICAL PRACTICE PTE LTD,1.4248212,103.8350704
GOCLINIC MARSILING,1.3587456,103.8849117
GOCLINIC SERANGOON,1.3590292,103.9551487
GOCLINIC YISHUN,1.3475386,103.8495469
GOH CLINIC & SURGERY,1.3074198,103.9038875
"GOOD MEDICAL CLINIC 
(TAMPINES EAST)",1.28967,103.85007
GOODHEALTH MEDICAL & SURGERY,1.28967,103.85007
GP@JOO CHIAT CLINIC,1.3454725,103.9455726
GREAT HEALTH MEDICAL CLINIC,1.28967,103.85007
GREEN CROSS MEDICAL CENTRE,1.3415355,103.6909282
GREENHEALTH FAMILY CLINIC,1.28967,103.85007
GREENLIFE CLINIC & SURGERY,1.39444,103.75389
"DRS OH, LIM, WONG & 
PARTNERS",1.416699,103.8314798
"DRS SINGH & PARTNERS, RAFFLES CITY MEDICAL CENTRE",1.28967,103.85007
GREENLIFE CLINIC & SURGERY,1.3634306,103.9617562
GREENLINK MEDICAL CLINIC,1.3797424,103.7487577
GSH CLINIC & SURGERY PTE. LTD.,1.2887251,103.8288455
"HAMID FAMILY CLINIC & 
SURGERY",1.28967,103.85007
HARMONY FAMILY CLINIC,1.28967,103.85007
HAVELOCK FAMILY CLINIC,1.28967,103.85007
HEAL MEDICAL CENTRE,1.28967,103.85007
HEALTH FIRST FAMILY CLINIC,1.28967,103.85007
HEALTH PARTNERS FAMILY CLINIC,1.2738833,103.8253393
HEALTH PARTNERS MEDICAL CLINIC,1.403964,103.9095319
HEALTH PARTNERS MEDICAL CLINIC (SIGLAP),1.28967,103.85007
"HEALTH PARTNERSHIP 
MEDICAL CENTRE",1.3593589,103.8291844
HEALTHBRIDGE FAMILY CLINIC,1.3587358,103.8867771
HEALTHCARE AMK MEDICAL CLINIC,1.3596374,103.7676376
HEALTHCARE FAMILY CLINIC & SURGERY,1.271995,103.824213
HEALTHCARE MEDICAL @ KOVAN,1.28967,103.85007
HEALTHCARE MEDICAL @ RAILMALL,1.3441015,103.7463929
HEALTHCARE UNITED,1.3985854,103.7452073
HEALTHIER GP CLINIC,1.3337309,103.8799367
HEALTHIFY MEDICAL FAMILY CLINIC,1.3498597,103.7252886
HEALTHLIFE FAMILY CLINIC,1.28967,103.85007
"HEALTHLIGHT FAMILY 
MEDICINE CLINIC",1.3949757,103.8960696
HEALTHLINK MEDICAL CLINIC & SURGERY,1.3416979,103.6971606
EHA CLINIC @ JURONG,1.3995317,103.9160233
HEALTHMARK CLINIC (PASIR RIS),1.28967,103.85007
HEALTHMARK FAMILY CLINIC (COMPASSVALE),1.28967,103.85007
HEALTHMARK FAMILY CLINIC (PIONEER MALL),1.3845519,103.765812
HEALTHMARK FAMILY CLINIC (PUNGGOL),1.3331379,103.9156241
HEALTHMARK FAMILY CLINIC (SIMS),1.2733166,103.8089804
HEALTHMATTERS - THE FAMILY PRACTICE,1.2927397,103.8080356
HEALTHMED FAMILY CLINIC (BUKIT PANJANG),1.3476998,103.9360246
HEALTHPLUS CLINIC & SURGERY,1.334204,103.870984
HEALTHPLUS FAMILY CLINIC & SURGERY,1.28967,103.85007
HEALTHPOINT FAMILY CLINIC & SURGERY PTE LTD,1.28967,103.85007
"HEALTHPRO CLINIC AND 
SURGERY",1.3559287,103.9452005
HEALTHSPRINGS MEDICAL & LASER CLINIC,1.3273451,103.9337867
HEALTHSPRINGS MEDICAL CLINIC,1.28967,103.85007
HEALTHVEER MEDICAL CLINIC (JURONG EAST),1.4324961,103.7923565
HEALTHWAY MEDICAL,1.3942793,103.9129336
HEALTHWAY MEDICAL,1.4530155,103.8168459
HEALTHWAY MEDICAL,1.293222,103.8592872
HEALTHWAY MEDICAL,1.28967,103.85007
HEALTHWAY MEDICAL,1.28967,103.85007
HEALTHWAY MEDICAL,1.3468707,103.9564591
HEALTHWAY MEDICAL,1.3725735,103.8937879
HEALTHWAY MEDICAL,1.28967,103.85007
HEALTHWAY MEDICAL,1.4305988,103.8272182
FAITH CLINIC (SIMEI),1.4288283,103.8500035
HEALTHWAY MEDICAL,1.353049,103.889691
HEALTHWAY MEDICAL,1.3146366,103.7715939
HEALTHWAY MEDICAL,1.3190441,103.860798
HEALTHWAY MEDICAL,1.3835401,103.8970773
HEALTHWAY MEDICAL,1.28967,103.85007
HEALTHWAY MEDICAL,1.28967,103.85007
HEALTHWAY MEDICAL,1.377615,103.73932
HEALTHWAY MEDICAL,1.302948,103.763777
HEALTHWAY MEDICAL,1.3236788,103.9108762
HEALTHWAY MEDICAL,1.3337519,103.8478348
HEALTHWAY MEDICAL,1.28967,103.85007
HEALTHWAY MEDICAL,1.3537138,103.8906559
HEALTHWAY MEDICAL,1.422888,103.8523081
HEALTHWAY MEDICAL,1.3212993,103.8864608
HEALTHWAY MEDICAL,1.3586385,103.9377437
HEALTHWAY MEDICAL,1.28722,103.80833
HEALTHWAY MEDICAL,1.3700803,103.8495228
HEALTHWAY MEDICAL,1.2770527,103.8484578
HEALTHWAY MEDICAL,1.3501915,103.7390936
HEALTHWAY MEDICAL,1.28967,103.85007
HEALTHWAY MEDICAL,1.28967,103.85007
HEALTHWAY MEDICAL,1.3296994,103.9015932
HEALTHWAY MEDICAL,1.31944,103.85611
HEALTHWAY MEDICAL,1.3461569,103.944584
HEALTHWAY MEDICAL,1.4336023,103.775886
HEALTHWAY MEDICAL,1.3624419,103.8510462
HEALTHWAY MEDICAL,1.3723624,103.8478916
HEALTHWAY MEDICAL,1.3237214,103.9409016
"FIRST MEDICAL CLINIC & 
SURGERY",1.2857711,103.8266235
HEALTHWAY MEDICAL,1.3477226,103.7444185
HEALTHWAY MEDICAL,1.3059193,103.9136952
HEALTHWAY MEDICAL,1.4248212,103.8350704
HEALTHWAY MEDICAL,1.3043771,103.7636162
HEALTHWAY MEDICAL,1.3090692,103.8611579
HEALTHWAY MEDICAL,1.3523302,103.9534923
HEALTHWAY MEDICAL,1.3413212,103.7067853
HEALTHWAY MEDICAL,1.3413875,103.6915386
HEALTHWAY MEDICAL,1.4495438,103.8186834
HEALTHWAY MEDICAL,1.381109,103.7448832
HEALTHWAY MEDICAL,1.3317216,103.9300043
HEALTHWAY MEDICAL CLINIC,1.28967,103.85007
HEALTHWERKZ MEDICAL CENTRE,1.3077946,103.8847861
HEALTHWERKZ MEDICAL CENTRE (CCK),1.4318961,103.8457964
HEALTHWERKZ MEDICAL CENTRE @ BEDOK,1.323225,103.855695
HEALTHWERKZ MEDICAL CENTRE @ CENTRIUM,1.286869,103.8181291
HEALTHWISE MEDICAL CLINIC & SURGERY,1.28967,103.85007
HEARTLAND FAMILY CLINIC,1.3237214,103.9409016
HEARTLANDHEALTH,1.3205587,103.9347959
HEARTLANDHEALTH,1.3566578,103.9334812
HEARTLANDHEALTH,1.2739691,103.808816
HEARTLANDHEALTH,1.3477348,103.7429478
HEARTLANDHEALTH,1.28967,103.85007
HEARTLANDHEALTH,1.3505812,103.7229812
HEARTLANDHEALTH,1.37278,103.83028
HEARTLANDHEALTH,1.3440568,103.7588797
HEARTLANDHEALTH,1.3536551,103.7035082
HEARTLANDHEALTH,1.3628913,103.8542944
FULLERTON HEALTH @ UBS,1.2774185,103.8194098
HEARTLANDHEALTH,1.2772037,103.8196554
HILL SPRING MEDICAL,1.28032,103.8261816
HISEMAINN MEDICAL CLINIC (BUKIT BATOK),1.3329912,103.9382518
HISEMAINN MEDICAL CLINIC (JURONG WEST),1.3700803,103.8495228
HK FAMILY CLINIC & SURGERY PTE LTD,1.37972,103.76472
HL CLINIC PTE LTD,1.2890578,103.8275194
HL DERMAHEALTH AESTHETIC CLINIC PTE LTD,1.3394398,103.7053332
HL FAMILY CLINIC & SURGERY PTE LTD,1.3501161,103.7499592
"HL FAMILY CLINIC & 
SURGERY(BEDOK) PTE LTD",1.3476119,103.7571273
"HMI ONECARE CLINIC 
ALJUNIED MRT",1.28967,103.85007
HMI ONECARE CLINIC ANG MO KIO,1.3773064,103.7671888
HMI ONECARE CLINIC BANGKIT,1.28967,103.85007
HMI ONECARE CLINIC BEO CRESCENT,1.4487455,103.8324847
HMI ONECARE CLINIC BOON LAY,1.28967,103.85007
HMI ONECARE CLINIC BUKIT BATOK,1.28967,103.85007
HMI ONECARE CLINIC BUKIT BATOK EAST,1.3195395,103.7641388
HMI ONECARE CLINIC BUKIT BATOK WEST,1.28967,103.85007
HMI ONECARE CLINIC BUKIT PANJANG BUS INTERCHANGE,1.3550461,103.8900342
HMI ONECARE CLINIC BUKIT PANJANG SEGAR,1.28967,103.85007
"HMI ONECARE CLINIC 
CANBERRA",1.3394964,103.705254
HMI ONECARE CLINIC CHOA CHU KANG,1.3492935,103.7193399
GREAT HEALTH MEDICAL CLINIC,1.3778545,103.7494678
"HMI ONECARE CLINIC 
CLEMENTI",1.3670929,103.9647716
"HMI ONECARE CLINIC 
FERNVALE",1.28967,103.85007
"HMI ONECARE CLINIC 
HOUGANG AVE 1",1.28967,103.85007
"HMI ONECARE CLINIC 
HOUGANG AVE 8",1.4032155,103.8952482
HMI ONECARE CLINIC JURONG POINT,1.2847415,103.8510968
HMI ONECARE CLINIC JURONG WEST,1.28967,103.85007
HMI ONECARE CLINIC KEAT HONG LRT,1.28967,103.85007
HMI ONECARE CLINIC LOYANG,1.3702553,103.8720445
HMI ONECARE CLINIC NOVENA,1.28967,103.85007
"HMI ONECARE CLINIC 
PUNGGOL PLAZA",1.28967,103.85007
"HMI ONECARE CLINIC 
PUNGGOL SUMANG",1.28967,103.85007
HMI ONECARE CLINIC RAFFLES PLACE,1.3302382,103.9013066
HMI ONECARE CLINIC SENJA 642,1.4336189,103.7799353
HMI ONECARE CLINIC SENJA 643,1.43333,103.83111
"HMI ONECARE CLINIC 
SERANGOON NORTH",1.3146366,103.7715939
"HMI ONECARE CLINIC 
TAMPINES",1.3289583,103.8863144
"HMI ONECARE CLINIC 
TAMPINES MRT",1.28967,103.85007
HMI ONECARE CLINIC TIONG BAHRU,1.28032,103.8261816
HMI ONECARE CLINIC UBI,1.28967,103.85007
"HMI ONECARE CLINIC 
WOODLANDS",1.4427399,103.7905373
HMI ONECARE CLINIC YISHUN,1.3711728,103.894518
HO MEDICAL CENTRE PTE LTD,1.3751487,103.8828083
HEALTHCARE UNITED,1.28967,103.85007
HO TONG CLINIC,1.28967,103.85007
HOLISTIC CARE FAMILY CLINIC,1.3700803,103.8495228
HONG ASSOCIATES CLINIC,1.3608299,103.9532244
HONG'S CLINIC PEOPLE'S PARK CENTRE,1.2873594,103.8438571
HOPE FAMILY CLINIC AND SURGERY,1.3454394,103.7194569
HOUGANG CENTRAL MEDICAL CLINIC,1.3360424,103.9124911
HOUGANG FAMILY MEDICINE CLINIC,1.28967,103.85007
HUA MEI CLINIC,1.28967,103.85007
"HUA MEI CLINIC, WHAMPOA",1.3192665,103.8640231
HUI CLINIC + SURGERY,1.4181729,103.8428787
HWANG & LIANG FAMILY CLINIC & SURGERY,1.3695023,103.8730613
ICARE MEDICAL CENTRE,1.422888,103.8523081
ICON MEDICAL CLINIC,1.3603619,103.762857
ICONCARE MEDICAL CLINIC,1.28967,103.85007
IDOC CLINIC,1.359357,103.8864027
IDOC CLINIC (HONG KAH) PTE LTD,1.4324961,103.7923565
I-HEALTH MEDICAL CLINIC,1.28967,103.85007
I-HEALTH MEDICAL CLINIC (CHONG PANG),1.3527815,103.9544326
I-HEALTH MEDICAL CLINIC (SERANGOON NORTH),1.28967,103.85007
I-HEALTH MEDICAL CLINIC (YISHUN),1.399037,103.8899278
"INSPIRE MEDICAL CLINIC 
(JALAN BATU)",1.3361558,103.934964
INTEGRATED WELLNESS CLINIC,1.35274,103.7398401
INTEMEDICAL (KOVAN),1.3977796,103.8811718
HEALTHWAY MEDICAL,1.3742637,103.7426804
INTEMEDICAL POTONG PASIR,1.3918936,103.871457
INTEMEDICAL TAMPINES,1.3862282,103.8930781
INTEMEDICAL TECK GHEE,1.28967,103.85007
"ISLAND FAMILY CLINIC 
(ANCHORVALE)",1.28967,103.85007
ISLAND FAMILY CLINIC (BEDOK),1.4559453,103.8151627
ISLAND FAMILY CLINIC (BUKIT BATOK),1.3073193,103.8602118
"ISLAND FAMILY CLINIC 
(FERNVALE)",1.4427399,103.7905373
ISLAND FAMILY CLINIC (KEAT HONG),1.3630401,103.8885051
"ISLAND FAMILY CLINIC 
(SELETAR)",1.28967,103.85007
"ISLAND FAMILY CLINIC 
(SENGKANG)",1.422888,103.8523081
ISLAND MEDICAL CLINIC,1.3371143,103.9199923
JADE MEDICAL CLINIC PTE LTD,1.3375584,103.9220014
JANE & LEE SEMBAWANG FAMILY CLINIC,1.3670929,103.9647716
JAPAN CLINIC AND SURGERY,1.28967,103.85007
JIREH FAMILY CLINIC,1.3326127,103.9143786
"JOASH FAMILY CLINIC & 
SURGERY",1.2844628,103.851882
"JO-LIN FAMILY CLINIC & 
SURGERY",1.3586385,103.9377437
JOY CLINIC AND SURGERY,1.28722,103.80833
JOY FAMILY CLINIC,1.28967,103.85007
JOYHEALTH MEDICAL CLINIC,1.28967,103.85007
JUBILEE FAMILY PHYSICIANS,1.28967,103.85007
JUSTCARE MEDICAL,1.3208177,103.8700151
K L TAY CLINIC & SURGERY,1.29868,103.85367
K N CHIN & ASSOCIATES PTE LTD,1.2857711,103.8266235
HEALTHWAY MEDICAL,1.28967,103.85007
HEALTHWAY MEDICAL,1.28967,103.85007
K N CHIN & ASSOCIATES PTE LTD,1.28967,103.85007
K. B. TAN CLINIC & LASER SURGERY,1.400018,103.9190784
KAI MEDICAL CLINIC,1.28967,103.85007
KALLANG BAHRU FAMILY CLINIC PTE. LTD.,1.2774185,103.8194098
KANG AN CLINIC PTE LTD,1.3802356,103.8412851
KAO & TAN FAMILY MEDICAL CENTRE & SURGERY,1.3234055,103.9411683
KARRI FAMILY CLINIC,1.3627031,103.8947219
KEAT HONG FAMILY MEDICINE CLINIC,1.332013,103.923692
KENNETH LOO FAMILY CLINIC,1.3700803,103.8495228
KENNETH TAN MEDICAL CLINIC,1.2974274,103.8381466
KENT RIDGE CLINIC,1.28967,103.85007
KEPPEL MEDICAL GROUP,1.3392686,103.9420822
KEYSTONE CLINIC & SURGERY,1.4248212,103.8350704
KEYSTONE CLINIC & SURGERY,1.3412261,103.8462721
KEYSTONE FAMILY CLINIC,1.3918936,103.871457
KHO CLINIC,1.314779,103.872213
KI MEDICAL CLINIC,1.354146,103.8701938
KILLINEY MEDICAL CLINIC,1.3077946,103.8847861
"KINDRED FAMILY CLINIC 
(KALLANG BAHRU)",1.2887852,103.8144028
"KINDRED FAMILY CLINIC 
(TAMPINES)",1.28967,103.85007
"KINDRED FAMILY CLINIC 
(YISHUN)",1.3452586,103.7188924
KINGSWAY MEDICAL CLINIC,1.3210349,103.7669293
KINGSWAY MEDICAL CLINIC,1.3125082,103.7649253
KO FAMILY CLINIC,1.3612763,103.7512561
"KOH'S T & T CLINIC AND 
SURGERY PTE. LTD.",1.3245324,103.8879688
HEALTHWISE MEDICAL CLINIC & SURGERY,1.3291889,103.9373558
"L & H POLYCLINIC AND 
SURGERY",1.28967,103.85007
L & L FAMILY MEDICINE CLINIC,1.2892428,103.8155442
LAKESIDE FAMILY MEDICINE CLINIC,1.3510536,103.9338367
"LAN MEDICAL CLINIC & 
SURGERY",1.28967,103.85007
LC CLINIC MEDICAL SURGERY AESTHETICS,1.28967,103.85007
LEE & KOH FAMILY CLINIC,1.3537138,103.8906559
LEE & TAN FAMILY CLINIC AND SURGERY,1.3288868,103.8871709
LEE CLINIC,1.348447,103.849103
LEE FAMILY CLINIC PTE. LTD.,1.3758007,103.7648563
LEONG CLINIC,1.28967,103.85007
LER CLINIC & SURGERY,1.39946,103.90634
LIANG CLINIC,1.41672,103.83451
LIFECARE FAMILY CLINIC,1.3705542,103.9573384
LIFECARE FAMILY CLINIC & SURGERY,1.3249188,103.9329989
LIFECARE MEDICAL CENTRE,1.3705542,103.9573384
LIFELINE BISHAN MEDICAL CLINIC,1.37972,103.76472
LIFELINE BUKIT PANJANG MEDICAL CLINIC,1.31697,103.8438
LIFELINE MEDICAL GROUP,1.3700803,103.8495228
LIFELINE PUNGGOL MEDICAL CLINIC PTE LTD,1.3188624,103.9109896
"LIFELINE YISHUN RING 
MEDICAL CLINIC",1.3258283,103.923042
LIFE-LINK CLINIC & SURGERY,1.28967,103.85007
LIFEPLUS MEDICAL GROUP (BEDOK),1.3587805,103.8868519
LILY AW PASIR RIS FAMILY CLINIC & SURGERY,1.4266401,103.8373078
HMI ONECARE CLINIC BANGKIT,1.3463778,103.9396179
LILY NEO CLINIC PTE LTD,1.28967,103.85007
LIM CLINIC,1.3520481,103.8845867
LIM CLINIC,1.3498597,103.7252886
LIM CLINIC & SURGERY,1.3550461,103.8900342
LIM CLINIC & SURGERY,1.3215587,103.8692392
LIM COUNTRY CLINIC,1.3336933,103.9270731
"LION HEALTH CLINIC & 
SURGERY (YISHUN)",1.3140774,103.8871011
LITTLE CROSS FAMILY CLINIC PTE LTD,1.3077017,103.8503915
LIVEWELL MEDICAL FAMILY CLINIC,1.3278588,103.8852438
LO & LEE CLINIC & SURGERY,1.3347198,103.8523027
LOI+WONG CLINIC & SURGERY,1.28967,103.85007
"LONDON (MH) CLINIC & 
SURGERY",1.28967,103.85007
LOW MEDICAL CLINIC,1.2833253,103.8310155
LUSUMU FAMILY CLINIC,1.305812,103.9147678
M LAM CLINIC,1.3062798,103.9152737
M MEDICAL CLINIC,1.4378404,103.7821937
MACPHERSON MEDICAL CLINIC,1.3430609,103.7381428
MAKE-WELL FAMILY CLINIC & SURGERY,1.28967,103.85007
MANADR CLINIC,1.3075848,103.793476
MANHATTAN MEDICAL CENTRE,1.28967,103.85007
MARINA MEDICAL CENTRE (TIONG BAHRU),1.28967,103.85007
MARINE PARADE CLINIC,1.4381597,103.7746843
MARINE TERRACE FAMILY CLINIC,1.2885695,103.8396267
MARTIN MEDICAL CENTRE,1.4032155,103.8952482
MARY MEDICAL CLINIC AND SURGERY,1.3679325,103.8970415
MARYMOUNT FAMILY CLINIC,1.28967,103.85007
"MAY MEDICAL CLINIC & 
SURGERY PTE LTD",1.3667005,103.9258495
HMI ONECARE CLINIC TIONG BAHRU,1.3423585,103.7395536
MBS-ALLIANCE IN-HOUSE CLINIC,1.3013776,103.9065973
MD FAMILY CLINIC,1.3675608,103.8664928
MEDI CLINIC,1.3614764,103.9536028
MEDI HEALTHCARE CLINIC (PUNGGOL),1.329663,103.9023403
MEDICA CLINIC,1.37491,103.8969113
"MEDICAL CENTRE @ 
COMMONWEALTH",1.28967,103.85007
MEDICARE ASSOCIATES,1.3967926,103.8892265
MEDICO CLINIC & SURGERY,1.334045,103.8444235
MEDILINE WEI MIN CLINIC,1.3744808,103.8866167
MEDILINE WEI MIN CLINIC,1.28967,103.85007
MEDINA MEDICAL CENTRE,1.3679146,103.8514987
MEDIPLUS CLINIC & SURGERY,1.292699,103.8028642
MEDIPOINT MEDICAL CENTRE (PONGGOL BRANCH),1.3683872,103.895939
MEDIVALE MEDICAL CLINIC,1.28967,103.85007
MEDIVENE CLINIC & SURGERY,1.2786226,103.8444622
"MEDIVIEW CLINIC AND 
SURGERY",1.28967,103.85007
MEDLIFE CLINIC & SURGERY,1.4333931,103.765018
MEDSTAR MEDICAL CLINIC & SURGERY,1.3394964,103.705254
MEENARA CLINIC,1.3694347,103.848334
MEI LING CLINIC,1.359357,103.8864027
MERIDIAN MEDICAL AND DENTAL CENTRE,1.28967,103.85007
MERIDIAN MEDICAL CENTRE,1.3394398,103.7053332
MHC MEDICAL CENTRE,1.28967,103.85007
MILLENNIUM MEDICAL GROUP,1.28967,103.85007
MILLENNIUM MEDICAL GROUP,1.28967,103.85007
"MINMED 24-HR CLINIC 
(JURONG WEST)",1.28967,103.85007
MINMED CLINIC (ANG MO KIO),1.3093892,103.8977646
INTEMEDICAL (KOVAN),1.31194,103.79333
MINMED CLINIC (BEDOK),1.28967,103.85007
MINMED CLINIC (BOON LAY),1.28967,103.85007
MINMED CLINIC (BUANGKOK),1.3026361,103.9044719
MINMED CLINIC (CHINATOWN),1.28967,103.85007
MINMED CLINIC (CLEMENTI),1.28967,103.85007
MINMED CLINIC (FARRER PARK),1.3724964,103.9497434
MINMED CLINIC (HAIG ROAD),1.28967,103.85007
MINMED CLINIC (HOLLAND VILLAGE),1.4064265,103.9020102
MINMED CLINIC (JURONG EAST),1.28967,103.85007
MINMED CLINIC (MARINA BAY),1.28967,103.85007
MINMED CLINIC (MARINE PARADE),1.28967,103.85007
MINMED CLINIC (NOVENA),1.28967,103.85007
MINMED CLINIC (ORCHARD),1.3670929,103.9647716
MINMED CLINIC (PASIR RIS),1.28967,103.85007
MINMED CLINIC (PAYA LEBAR),1.28967,103.85007
MINMED CLINIC (PUNGGOL),1.28967,103.85007
MINMED CLINIC (REDHILL),1.3652584,103.7519707
MINMED CLINIC (RIVER VALLEY),1.3520554,103.8608148
MINMED CLINIC (SENGKANG),1.3725971,103.8988127
MINMED CLINIC (WOODLANDS),1.4266292,103.8428674
MINMED CLINIC (YISHUN RING),1.3914121,103.8905859
JUBILEE FAMILY PHYSICIANS,1.3857377,103.8973015
MINMED CLINIC (YISHUN),1.3967194,103.9085329
MINMED HEALTH SCREENERS,1.28967,103.85007
MINT MEDICAL CENTRE,1.4336794,103.7652997
"MISSION (BUKIT BATOK) 
MEDICAL CLINIC",1.28967,103.85007
MISSION (CHUAN) MEDICAL CLINIC,1.3278193,103.9308553
MISSION (HOUGANG) MEDICAL CLINIC,1.3948882,103.8880208
MISSION CROSS FAMILY CLINIC,1.4157219,103.8398225
"MUTUAL HEALTHCARE 
MEDICAL CLINIC",1.377615,103.73932
"MUTUAL HEALTHCARE 
MEDICAL CLINIC",1.3152781,103.7668558
"MUTUAL HEALTHCARE 
MEDICAL CLINIC",1.31583,103.76472
MY CLINIC,1.3711728,103.894518
MY CORPORATE CLINIC @ GLOBALFOUNDRIES,1.3416979,103.6971606
MY DOCTOR @ LAKESIDE,1.4036585,103.9061261
MY DOCTOR'S PLACE PTE LTD,1.2974274,103.8381466
"MY FAMILY CLINIC 
(ANCHORVALE)",1.28967,103.85007
MY FAMILY CLINIC (ANGSANA BREEZE @ YISHUN),1.3887698,103.7709551
MY FAMILY CLINIC (CHOA CHU KANG),1.385167,103.7603062
MY FAMILY CLINIC (CLEMENTI 325),1.3233238,103.8606858
MY FAMILY CLINIC (CLEMENTI),1.2977707,103.8061625
MY FAMILY CLINIC (HOUGANG CENTRAL),1.3346566,103.8490092
MY FAMILY CLINIC (PIONEER),1.4311005,103.7985065
MY FAMILY CLINIC (PUNGGOL CENTRAL),1.28967,103.85007
KILLINEY MEDICAL CLINIC,1.3728723,103.8577559
MY FAMILY CLINIC (RIVERVALE),1.3750591,103.8781832
MY FAMILY CLINIC (SEGAR),1.4382576,103.803627
MY FAMILY CLINIC (SENJA),1.28967,103.85007
MY FAMILY CLINIC (ST GEORGE),1.28967,103.85007
MY FAMILY CLINIC (TANGLIN HALT),1.3118642,103.7587293
MY FAMILY CLINIC (TOA PAYOH CENTRAL),1.3415355,103.6909282
"MY FAMILY CLINIC 
(WOODLANDS GLEN)",1.3146366,103.7715939
"MY FAMILY CLINIC 
(WOODLANDS)",1.28967,103.85007
MYCLNQ MEDICAL,1.28967,103.85007
MYCLNQ MEDICAL HOUGANG,1.3592409,103.7507379
MYDOCTOR@ADMIRALTY PTE LTD,1.3735332,103.8863133
MYDOCTOR@BALESTIER,1.3202093,103.9032068
MYDOCTOR@CANBERRA,1.35333,103.9582011
MYHEALTH MEDICAL CENTRE,1.28967,103.85007
NANYANG CENTRE CLINIC,1.3706952,103.8282145
NATIONAL CLINIC,1.3758007,103.7648563
NCS MEDICAL CLINIC,1.28967,103.85007
NEE SOON CLINIC,1.28967,103.85007
NEECARE MEDICAL CENTRE,1.3222065,103.7382286
NEIGHBOURHOOD MEDICAL CLINIC,1.28967,103.85007
NEOH & ONG MEDICAL CLINIC,1.3332998,103.9259676
"NEPTUNE HEALTHCARE 
MEDICAL & SURGERY",1.28967,103.85007
NEW HEALTH FAMILY CLINIC PTE LTD,1.28967,103.85007
"NEW PATH MEDICAL & 
AESTHETICS",1.3912987,103.8952065
LIFELINE BUKIT PANJANG MEDICAL CLINIC,1.3490572,103.7495906
NEWCASTLE CLINIC,1.3080768,103.7858814
NEWEST MEDICAL AND LASER CLINIC PTE LTD,1.3078091,103.8850135
NEWLIFE FAMILY CLINIC & SURGERY,1.422888,103.8523081
NORTHEAST MEDICAL GROUP,1.28967,103.85007
NORTHEAST MEDICAL GROUP,1.4192268,103.905285
NORTHEAST MEDICAL GROUP,1.28967,103.85007
NORTHEAST MEDICAL GROUP,1.4465419,103.805898
NORTHEAST MEDICAL GROUP,1.3535142,103.8716164
NORTHEAST MEDICAL GROUP,1.28967,103.85007
NORTHEAST MEDICAL GROUP,1.28967,103.85007
NORTHEAST MEDICAL GROUP,1.28967,103.85007
NORTHLAND FAMILY CLINIC & SURGERY,1.28967,103.85007
NORTHLINK (WOODLANDS) CLINIC,1.28967,103.85007
NORTHSHORE FAMILY CLINIC,1.3697854,103.9480767
"NORWOOD MEDICAL 
(HOUGANG)",1.3267682,103.8424618
NORWOOD MEDICAL CLINIC,1.3247933,103.9407406
"NTUC HEALTH FAMILY 
MEDICINE CLINIC",1.28967,103.85007
NUFFIELD MEDICAL ORCHARD,1.335739,103.8568213
NUFFIELD MEDICAL SIGLAP,1.28967,103.85007
NUHEALTH MEDICAL CENTRE,1.3461364,103.6974234
NUTRAMED CLINIC,1.28967,103.85007
NYAM FAMILY CLINIC,1.3081248,103.9084881
O2 MEDICAL CLINIC,1.3571301,103.8438701
OAKLIFE FAMILY CLINIC,1.36417,103.75722
OASIS FAMILY CLINIC,1.4329149,103.8406947
MANADR CLINIC,1.4064265,103.9020102
"OEI & KHO CLINIC AND 
SURGERY",1.3710916,103.848313
OEI FAMILY CLINIC,1.43333,103.83111
ONE MEDICAL CLINIC,1.3113838,103.7959836
ONE WELLNESS MEDICAL,1.28967,103.85007
ONE WELLNESS MEDICAL,1.28967,103.85007
ONECARE CLINIC BISHAN,1.28967,103.85007
"ONECARE CLINIC BUKIT 
GOMBAK MRT",1.3603619,103.762857
ONECARE CLINIC JUNCTION 9,1.3705727,103.9619525
ONEDOCTORS FAMILY CLINIC,1.3493403,103.9346183
ONEDOCTORS FAMILY CLINIC,1.3611118,103.9400568
ONEDOCTORS FAMILY CLINIC,1.336749,103.8741128
ONEDOCTORS FAMILY CLINIC,1.426308,103.8523354
"ONEDOCTORS MEDICAL 
CENTRE",1.349018,103.8480269
ONELIFE FAMILY CLINIC,1.2887659,103.8160421
ONG'S CLINIC,1.3967926,103.8892265
"OUR FAMILY CLINIC & 
SURGERY PTE LTD",1.4263979,103.8277414
OUR FAMILY CLINIC + SURGERY,1.2772426,103.8310287
OUR FAMILY PHYSICIAN CLINIC & SURGERY,1.28967,103.85007
OUR TAMPINES FAMILY CLINIC,1.28967,103.85007
OUR WOODLEIGH FAMILY CLINIC,1.28967,103.85007
OUR YISHUN FAMILY CLINIC,1.3506468,103.8762537
P TAN FAMILY MEDICINE CLINIC,1.28967,103.85007
PACIFIC FAMILY CLINIC,1.3207779,103.7481721
MEDIVENE CLINIC & SURGERY,1.4114011,103.9005244
PACIFIC MEDICAL & DENTAL GROUP,1.375088,103.8822547
PANCARE MEDICAL (BUKIT MERAH),1.3232395,103.8667183
PANCARE MEDICAL (HOUGANG),1.3003505,103.8495358
PANCARE MEDICAL (JURONG EAST),1.28967,103.85007
"PANCARE MEDICAL 
(SERANGOON)",1.3541277,103.8719618
PANCARE MEDICAL CLINIC,1.3714876,103.8458658
PANDAN CLINIC PTE LTD,1.28967,103.85007
PANHEALTH FAMILY CLINIC,1.2830522,103.8509298
PANHEALTH FAMILY CLINIC (HOUGANG),1.347181,103.9380431
PARIQUA CLINIC,1.28967,103.85007
PARKLANE MEDICAL CENTRE,1.3724876,103.8674742
PARKWAY MEDICENTRE,1.3594916,103.8852177
PARKWAY SHENTON,1.28967,103.85007
PARKWAY SHENTON FAMILY MEDICAL CLINIC,1.28967,103.85007
PARKWAY SHENTON MEDICAL CLINIC,1.28967,103.85007
PARKWAY SHENTON MEDICAL CLINIC,1.28967,103.85007
PARKWAY SHENTON MEDICAL CLINIC,1.28967,103.85007
PARKWAY SHENTON MEDICAL CLINIC,1.28967,103.85007
PARKWAY SHENTON MEDICAL CLINIC,1.28967,103.85007
PARKWAY SHENTON MEDICAL CLINIC,1.312649,103.765599
PARKWAY SHENTON MEDICAL CLINIC,1.4027879,103.9132234
MINMED CLINIC (MARINA BAY),1.28967,103.85007
PARKWAY SHENTON MEDICAL CLINIC,1.3690727,103.9575926
PARKWAY SHENTON MEDICAL CLINIC,1.28967,103.85007
PARKWAY SHENTON MEDICAL CLINIC,1.4323605,103.786894
PARKWAY SHENTON MEDICAL CLINIC,1.4331192,103.7793323
PARKWAY SHENTON MEDICAL CLINIC,1.3625972,103.9378943
PARKWAY SHENTON MEDICAL GROUP,1.28967,103.85007
PARKWAY SHENTON MEDICAL GROUP,1.3782625,103.7564525
PARKWAY SHENTON MEDICAL GROUP,1.28967,103.85007
PASIR RIS CLINIC & SURGERY PTE LTD,1.28967,103.85007
PCS MEDICAL CENTRE,1.28967,103.85007
PEACE FAMILY CLINIC,1.28967,103.85007
PEACE FAMILY CLINIC (WL832),1.28967,103.85007
"PEAK MEDICAL CLINIC & 
SURGERY",1.3326127,103.9143786
PEAK MEDICAL WEST PLAINS,1.28967,103.85007
PHOENIX CLINIC & SURGERY,1.422888,103.8523081
PHOENIX MEDICAL GROUP,1.4336794,103.7652997
PHOENIX MEDICAL GROUP ( NOVENA ),1.3454948,103.6973409
PHOENIX MEDICAL GROUP (HILLVIEW),1.28967,103.85007
PHOENIX MEDICAL GROUP (PAYA LEBAR),1.360576,103.9701203
PHOENIX MEDICAL GROUP (POTONG PASIR),1.3975758,103.8968608
PHOON CLINIC AND SURGERY,1.28967,103.85007
PHYSICIANS PRACTICE FAMILY MEDICAL CENTER,1.3725971,103.8988127
PIDEMCO MEDICAL CENTRE PTE LTD,1.41727,103.9016903
MY CORPORATE CLINIC @ GLOBALFOUNDRIES,1.3730506,103.9456718
PIER MEDICAL CENTRE,1.2902039,103.8482584
PINNACLE FAMILY CLINIC (BUANGKOK SQUARE),1.28967,103.85007
PINNACLE FAMILY CLINIC (CHANGI NORTH),1.3698237,103.8730163
PINNACLE FAMILY CLINIC (COMPASSVALE),1.4311005,103.7985065
PINNACLE FAMILY CLINIC (DAKOTA),1.3925099,103.7439131
PINNACLE FAMILY CLINIC (HOUGANG),1.28967,103.85007
PINNACLE FAMILY CLINIC (NORTHSHORE PLAZA 1),1.3238403,103.8551531
PINNACLE FAMILY CLINIC (PASIR RIS),1.3327737,103.8678801
PINNACLE FAMILY CLINIC (RIVER VALLEY),1.3590118,103.9349128
PINNACLE FAMILY CLINIC (SEMBAWANG),1.28967,103.85007
PINNACLE FAMILY CLINIC (SERANGOON NORTH),1.3700803,103.8495228
PINNACLE FAMILY CLINIC (WOODLANDS),1.28967,103.85007
PINNACLE FAMILY CLINIC (YEW TEE),1.28967,103.85007
PLATINUM MEDICAL CENTRE PTE LTD,1.4382576,103.803627
PLUSHEALTH MEDICAL CLINIC & SURGERY,1.3772917,103.7730485
POTONG PASIR MEDICAL CLINIC,1.3850022,103.8958614
PRAISE FAMILY CLINIC,1.28967,103.85007
PRECIOUS MEDICAL CENTRE,1.28967,103.85007
PREMIER CLINIC & SURGERY PTE LTD,1.28967,103.85007
PRESTIGE FAMILY CLINIC,1.28967,103.85007
PRIME MEDICAL GROUP PTE LTD,1.4045846,103.9086457
MYDOCTOR@ADMIRALTY PTE LTD,1.4179029,103.9012845
"PROHEALTH 24-HOUR 
MEDICAL CLINIC",1.4004815,103.9103509
PROHEALTH MEDICAL GROUP @BUANGKOK,1.28967,103.85007
PROHEALTH MEDICAL GROUP @BUKIT BATOK,1.28967,103.85007
PROHEALTH MEDICAL GROUP @FERNVALE,1.28967,103.85007
PROHEALTH MEDICAL GROUP @HOUGANG,1.3779196,103.7444017
PROHEALTH MEDICAL GROUP @LRT FERNVALE,1.28967,103.85007
PROHEALTH MEDICAL GROUP @PUNGGOL DAMAI,1.28967,103.85007
PROHEALTH MEDICAL GROUP @PUNGGOL NORTHSHORE,1.28967,103.85007
PROHEALTH MEDICAL GROUP @PUNGGOL SPECTRA,1.28967,103.85007
PROHEALTH MEDICAL GROUP @TAMAN JURONG,1.4010206,103.8991863
PROHEALTH MEDICAL GROUP @TAMPINES,1.28967,103.85007
PROHEALTH MEDICAL GROUP @WOODLEIGH,1.28967,103.85007
PRO-LIFE MEDICAL ASSOCIATES,1.28967,103.85007
PROVIDENCE CLINIC @ NOVENA,1.38251,103.89296
PROVIDENCE MEDICAL CENTRE PTE. LTD.,1.28967,103.85007
PROVIDENTIA MEDICAL,1.3538627,103.8723813
PUNGGOL FAMILY CLINIC PTE. LTD.,1.301136,103.8571482
PUNGGOL RIPPLES FAMILY CLINIC,1.28967,103.85007
Q & M MEDICAL & AESTHETIC CLINIC (FARRER PARK),1.3456864,103.8560258
Q & M MEDICAL & AESTHETIC CLINIC (TAMPINES CENTRAL) PTE. LTD.,1.3724889,103.8474507
NORTHEAST MEDICAL GROUP,1.3663512,103.9645143
"Q & M MEDICAL CLINIC 
(BUANGKOK MRT) PTE. LTD.",1.3344059,103.740198
Q & M MEDICAL CLINIC (BUKIT BATOK),1.28967,103.85007
Q & M MEDICAL FAMILY CLINIC,1.3337519,103.8478348
RAFFLES EXECUTIVE MEDICAL CENTRE,1.2844628,103.851882
RAFFLESMEDICAL,1.28967,103.85007
RAFFLESMEDICAL,1.28967,103.85007
RAFFLESMEDICAL,1.28967,103.85007
RAFFLESMEDICAL,1.28967,103.85007
RAFFLESMEDICAL,1.3713266,103.8935517
RAFFLESMEDICAL,1.28967,103.85007
RAFFLESMEDICAL,1.4495438,103.8186834
RAFFLESMEDICAL,1.3125082,103.7649253
RAFFLESMEDICAL,1.28967,103.85007
RAFFLESMEDICAL,1.302562,103.907375
RAFFLESMEDICAL,1.28967,103.85007
RAFFLESMEDICAL,1.3724964,103.9497434
RAFFLESMEDICAL,1.3571301,103.8438701
RAFFLESMEDICAL,1.28967,103.85007
RAFFLESMEDICAL,1.3850567,103.7450277
RAFFLESMEDICAL,1.3074198,103.9038875
RAFFLESMEDICAL,1.28967,103.85007
RAFFLESMEDICAL,1.28967,103.85007
RAFFLESMEDICAL,1.3394964,103.705254
RAFFLESMEDICAL,1.3257782,103.9294382
ONECARE CLINIC BISHAN,1.3968091,103.7467917
RAFFLESMEDICAL,1.28967,103.85007
RAFFLESMEDICAL,1.34281,103.95297
RAFFLESMEDICAL,1.28967,103.85007
RAFFLESMEDICAL,1.38639,104.0025
RAFFLESMEDICAL,1.28967,103.85007
RAFFLESMEDICAL,1.301136,103.8571482
RAFFLESMEDICAL,1.28967,103.85007
RAFFLESMEDICAL,1.28967,103.85007
RAFFLESMEDICAL,1.3414006,103.9847624
RAFFLESMEDICAL,1.4064265,103.9020102
RAFFLESMEDICAL,1.28967,103.85007
RAFFLESMEDICAL,1.28967,103.85007
RAFFLESMEDICAL,1.3890828,103.9097503
RAFFLESMEDICAL,1.28967,103.85007
RAFFLESMEDICAL,1.28967,103.85007
RAFFLESMEDICAL,1.3506468,103.8762537
RAFFLESMEDICAL,1.28967,103.85007
RAFFLESMEDICAL,1.3541277,103.8719618
RAFFLESMEDICAL,1.3368673,103.9204745
RAFFLESMEDICAL,1.3776263,103.755745
RCMC RIVERVALE CRESCENT MEDICAL CENTRE,1.28967,103.85007
RC'S FAMILY CLINIC PTE LTD,1.3773078,103.9035432
RED DOT MEDICAL,1.28967,103.85007
"PANCARE MEDICAL 
(SERANGOON)",1.28967,103.85007
"REDWOOD CLINIC AND 
SURGERY PTE LTD",1.3778545,103.7494678
REDWOOD@TPY CLINIC AND SURGERY PTE LTD,1.4201172,103.8435501
RESERVOIR ROAD CLINIC & SURGERY,1.28967,103.85007
RIVER OF LIFE FAMILY CLINIC,1.370738,103.8570935
RIVER VALLEY MEDICAL & SURGERY CLINIC,1.29868,103.85367
RIVERSAGE FAMILY CLINIC,1.4260582,103.8318663
RIVERVALE FAMILY CLINIC & SURGERY,1.422888,103.8523081
ROCHOR CENTRE CLINIC,1.3626405,103.872859
ROYAL CARE MEDICAL FAMILY CLINIC CHOA CHU KANG,1.371454,103.881279
ROYAL CARE MEDICAL YISHUN GROVE,1.422888,103.8523081
ROYAL CARE MEDICAL YISHUN JUNCTION 9,1.3332998,103.9259676
ROY'S FAMILY CLINIC,1.28967,103.85007
RUBY MEDICAL CENTRE PTE LTD,1.28967,103.85007
S & L FAMILY CLINIC,1.3710263,103.8459226
S AND L FAMILY CLINIC,1.334117,103.7403709
S G CLINIC FAMILY PRACTICE,1.28967,103.85007
S LEE CLINIC,1.28967,103.85007
S S TAN MEDICAL CLINIC,1.3277349,103.9213776
S. T. MEDICAL CLINIC,1.3290723,103.8700587
"SATA COMMHEALTH 
COMMUNITY HUB",1.35514,103.99006
SATA COMMHEALTH MEDICAL CENTRE,1.3521194,103.9365383
SATA COMMHEALTH MEDICAL CENTRE,1.28967,103.85007
SATA COMMHEALTH MEDICAL CENTRE,1.28528,103.80444
SATA COMMHEALTH MEDICAL CENTRE,1.28967,103.85007
PARKWAY SHENTON MEDICAL GROUP,1.3483117,103.7242489
SATA COMMHEALTH MEDICAL CENTRE,1.28967,103.85007
SATA COMMHEALTH MEDICAL CENTRE,1.28967,103.85007
"SAUDARA CLINIC BY A+J 
GENERAL PHYSICIANS",1.3375584,103.9220014
SEASONS CLINIC,1.3523302,103.9534923
SENNETT MEDICAL CLINIC,1.3399805,103.7732955
SHALOM CLINIC & SURGERY,1.28967,103.85007
SHALOM MEDICAL GROUP,1.28967,103.85007
SHENTON CLINIC,1.422888,103.8523081
SHENTON FAMILY MEDICAL CLINIC,1.28967,103.85007
SHENTON FAMILY MEDICAL CLINIC,1.28967,103.85007
SHENTON FAMILY MEDICAL CLINIC (BEDOK RESERVOIR),1.28967,103.85007
SHENTON FAMILY MEDICAL CLINIC (TAMPINES),1.3076611,103.8515972
SHENTON MEDICAL GROUP,1.3505812,103.7229812
SHENTON MEDICAL GROUP,1.3454725,103.9455726
SHENTON MEDICAL GROUP,1.3505812,103.7229812
SHENTON MEDICAL GROUP,1.3756005,103.8865229
SHENTON MEDICAL GROUP,1.28967,103.85007
SHENTON MEDICAL GROUP,1.28967,103.85007
SHENTON MEDICAL GROUP,1.3147211,103.8955876
SHENTON MEDICAL GROUP,1.3330197,103.955751
SHIFA CLINIC & SURGERY,1.28967,103.85007
SHIFA CLINIC (JURONG),1.3267231,103.91906
SHIFA CLINIC (TAMPINES),1.41672,103.83451
SHINE FAMILY CLINIC,1.3504414,103.7181864
SIA & YEO HOUGANG CLINIC PTE LTD,1.3111476,103.7961329
PINNACLE FAMILY CLINIC (SEMBAWANG),1.343221,103.775265
SIA ALH CLINIC (FOR EMPLOYEE ONLY),1.3178295,103.8801042
"SIA FAMILY CLINIC AND 
SURGERY",1.28967,103.85007
SIA TRAINING CENTRE CLINIC (FOR EMPLOYEE ONLY),1.3125082,103.7649253
SIGLAP CLINIC PTE LTD,1.2786226,103.8444622
SILKROUTES @ CHAI CHEE CLINIC,1.326903,103.9249099
SILVER CROSS MEDICAL,1.4518723,103.7976924
SILVER CROSS MEDICAL,1.28967,103.85007
SILVER CROSS MEDICAL,1.2922046,103.8028706
SILVER CROSS MEDICAL,1.3760409,103.7709449
SIMS DRIVE MEDICAL CLINIC,1.3329598,103.9047783
SINGAPURA CLINIC,1.422888,103.8523081
SINGMEDICAL CLINIC CLEMENTI,1.3078091,103.8850135
SKY MEDICAL,1.3424486,103.9556026
SM HANEEFA CLINIC,1.3915825,103.8492444
SMRT MEDICAL CLINIC @ WOODLANDS DEPOT,1.28967,103.85007
SOH WELL CLINIC & SURGERY,1.3388984,103.7098334
SOONG CLINIC AND SURGERY,1.28967,103.85007
SP CLINIC,1.345826,103.8989134
SPEEDOC,1.4186581,103.8625441
SPEEDOC CLINIC,1.3226185,103.8611182
SPRING MEDICAL CLINIC (OLD AIRPORT ROAD),1.3494297,103.7422373
"ST ANDREW'S MISSION 
HOSPITAL CLINIC (SIMEI)",1.28967,103.85007
ST ENGINEERING IN-HOUSE CLINIC (ANG MO KIO),1.3462442,103.7494054
ST ENGINEERING IN-HOUSE CLINIC (CHANGI),1.3122814,103.8546429
ST ENGINEERING IN-HOUSE CLINIC (JALAN BOON LAY),1.3561736,103.88922
PROVIDENCE CLINIC @ NOVENA,1.3076611,103.8515972
ST ENGINEERING IN-HOUSE CLINIC (PAYA LEBAR),1.28967,103.85007
ST ENGINEERING IN-HOUSE CLINIC (SELETAR),1.3317338,103.9398296
"ST GEORGES CLINIC AND 
SURGERY PTE LTD",1.3714886,103.970238
ST. LUKE'S COMMUNITY CLINIC,1.28967,103.85007
STANDARD CLINIC & SURGERY,1.3461569,103.944584
"STARCARE CLINIC AND 
SURGERY PTE. LTD.",1.3533625,103.9530867
STARMED SPECIALIST CENTRE PTE LTD,1.3802356,103.8412851
"STAT MEDICAL CLINIC @ 
HOUGANG",1.3805147,103.7697245
STELLA MARIS FAMILY CLINIC & SURGERY,1.28967,103.85007
STERLING CLINIC & SURGERY,1.28967,103.85007
STERLING FAMILY CLINIC,1.4460686,103.8287387
STEWARD CLINIC,1.3125235,103.8721713
STRAITS CLINIC,1.28967,103.85007
STREET 11 CLINIC,1.3363873,103.8872218
STREET 21 CLINIC TAMPINES PTE. LTD.,1.3461569,103.944584
SUMMIT MEDICAL CLINIC,1.28967,103.85007
SUNBEAM MEDICAL CLINIC,1.347181,103.9380431
SUNBEAM MEDICAL CLINIC,1.3312887,103.9099484
SUNCARE MEDICAL CLINIC,1.4461731,103.7994564
T MEDICAL CLINIC,1.3475386,103.8495469
T MEDICAL CLINIC (KALLANG),1.3653809,103.8491043
T.A. MEDICAL CLINIC,1.3801854,103.8404156
TAI SENG CLINIC,1.3403819,103.7728476
"TAMPINES CLINIC AND 
SURGERY PTE LTD",1.28967,103.85007
RAFFLESMEDICAL,1.3190441,103.860798
TAMPINES FAMILY MEDICINE CLINIC,1.3190441,103.860798
TAMPINES MEDILIFE CLINIC,1.3689253,103.8462801
TAN & KOH CLINIC & SURGERY,1.3313898,103.9087591
TAN & NAH FAMILY CLINIC,1.3089938,103.8552597
TAN & YIK CLINIC & SURGERY,1.3474136,103.7170843
TAN MEDICAL CLINIC PTE LTD,1.3474136,103.7170843
TAN MEDICARE CLINIC PTE LTD,1.28967,103.85007
TANG FAMILY CLINIC,1.3687218,103.8555019
"TAN'S T & T CLINIC AND 
SURGERY",1.3198247,103.9439649
TAN-TEOH CLINIC & SURGERY,1.363754,103.7467239
TAN-TEOH CLINIC & SURGERY,1.4530992,103.8166963
TAN-TEOH CLINIC & SURGERY (ANG MO KIO BRANCH),1.3979868,103.7469021
TAY CLINIC,1.4427399,103.7905373
TAYKA MEDICAL,1.3326345,103.9396463
TAYKA MEDICAL FAMILY CLINIC,1.28967,103.85007
TC FAMILY CLINIC PTE LTD,1.28967,103.85007
TEBAN GARDEN CLINIC,1.336749,103.8741128
TECK GHEE CLINIC (DR TAN YANG KHAI) PTE LTD,1.3456864,103.8560258
TEMASEK CLINIC & SURGERY,1.3142463,103.7645522
TEMASEK MEDICAL CENTRE,1.332013,103.923692